[
  {
    "id": "sinjeongho_cafe",
    "name": "신정호 카페거리",
    "city": "아산",
    "category": "outdoor",
    "tags": ["테라스", "조망", "사진맛집", "산책"],
    "weather_weights": { "sunny": 1.0, "cloudy": 0.6, "rainy": 0.1, "fine_dust_limit": "moderate" },
    "temp_range": { "min": 10, "max": 32 },
    "golden_hour_bonus": true,
    "copy": "오늘 하늘이 맑으니 테라스 자리 먼저 잡으세요.",
    "coords": { "lat": 36.7969, "lng": 127.0137 },
    "companion_fit": ["couple", "friends"],
    "activity_level": "moderate",
    "avg_stay_minutes": 90,
    "best_months": [4, 5, 9, 10],
    "best_time_slots": ["afternoon", "golden_hour"],
    "opening_hours_note": "매장별 상이 — 방문 전 확인",
    "parking_note": "인근 공영·노상 주차 가능(혼잡 시 대기)"
  },
  {
    "id": "oeam_village",
    "name": "외암민속마을",
    "city": "아산",
    "category": "outdoor",
    "tags": ["역사", "걷기", "전통", "고즈넉함"],
    "weather_weights": { "sunny": 1.0, "cloudy": 0.8, "rainy": 0.2, "fine_dust_limit": "good" },
    "temp_range": { "min": 5, "max": 30 },
    "golden_hour_bonus": true,
    "copy": "맑은 날 돌담길 산책이 가장 예쁩니다.",
    "coords": { "lat": 36.7291, "lng": 127.0747 }
  },
  {
    "id": "onyang_museum",
    "name": "온양민속박물관",
    "city": "아산",
    "category": "indoor",
    "tags": ["실내", "전시", "문화", "가족"],
    "weather_weights": { "sunny": 0.5, "cloudy": 0.8, "rainy": 1.0, "fine_dust_limit": "bad" },
    "temp_range": { "min": -20, "max": 40 },
    "golden_hour_bonus": false,
    "copy": "궂은 날씨엔 여기가 정답입니다.",
    "coords": { "lat": 36.7897, "lng": 127.0041 },
    "companion_fit": ["family", "solo", "couple"],
    "activity_level": "low",
    "avg_stay_minutes": 120,
    "opening_hours_note": "휴관일·관람시간 시설 안내 확인",
    "parking_note": "주차장 있음(만차 가능)",
    "role_tags": ["museum", "indoor_culture", "family"],
    "recommended_next_steps": ["meal", "cafe_rest", "indoor_backup"],
    "avg_stay_minutes": 120,
    "activity_level": "low",
    "family_fit": 0.85,
    "photo_fit": 0.35,
    "healing_fit": 0.45,
    "indoor_ratio": 0.95
  },
  {
    "id": "paradise_spa",
    "name": "파라다이스 스파 도고",
    "city": "아산",
    "category": "indoor",
    "tags": ["온천", "힐링", "물놀이", "궂은날씨가능"],
    "weather_weights": { "sunny": 0.6, "cloudy": 0.9, "rainy": 1.0, "fine_dust_limit": "bad" },
    "temp_range": { "min": -20, "max": 40 },
    "golden_hour_bonus": false,
    "copy": "추운 날일수록 온천 효과가 배가됩니다.",
    "coords": { "lat": 36.7563, "lng": 126.9865 },
    "companion_fit": ["couple", "family", "friends"],
    "activity_level": "low",
    "avg_stay_minutes": 180,
    "opening_hours_note": "시즌·요일별 요금·시간 상이",
    "parking_note": "시설 주차(혼잡 시 안내)"
  },
  {
    "id": "gokgyocheon",
    "name": "곡교천 은행나무길",
    "city": "아산",
    "category": "outdoor",
    "tags": ["산책", "단풍", "사진맛집", "자연"],
    "weather_weights": { "sunny": 1.0, "cloudy": 0.7, "rainy": 0.1, "fine_dust_limit": "moderate" },
    "temp_range": { "min": 5, "max": 28 },
    "golden_hour_bonus": true,
    "copy": "맑은 가을날 노란 은행잎이 절정입니다.",
    "coords": { "lat": 36.7896, "lng": 127.0215 },
    "role_tags": ["nature_walk", "photo_spot", "family_outdoor"],
    "recommended_next_steps": ["meal", "cafe_rest", "short_walk"],
    "avg_stay_minutes": 70,
    "activity_level": "medium",
    "family_fit": 0.7,
    "photo_fit": 0.65,
    "healing_fit": 0.75,
    "indoor_ratio": 0.1
    },
  {
    "id": "gongju_fortress",
    "name": "공주 공산성",
    "city": "공주",
    "category": "outdoor",
    "tags": ["역사", "성곽", "걷기", "야경", "사진맛집"],
    "weather_weights": { "sunny": 1.0, "cloudy": 0.7, "rainy": 0.2, "fine_dust_limit": "moderate" },
    "temp_range": { "min": 5, "max": 33 },
    "golden_hour_bonus": true,
    "copy": "성곽 위에서 보는 금강 노을이 압도적입니다.",
    "coords": { "lat": 36.4607, "lng": 127.1194 }
  },
  {
    "id": "mireuk_tomb",
    "name": "무령왕릉",
    "city": "공주",
    "category": "outdoor",
    "tags": ["역사", "문화유산", "유네스코", "가족"],
    "weather_weights": { "sunny": 0.9, "cloudy": 0.8, "rainy": 0.3, "fine_dust_limit": "moderate" },
    "temp_range": { "min": 0, "max": 35 },
    "golden_hour_bonus": false,
    "copy": "1500년 백제의 숨결을 느낄 수 있는 유네스코 유산.",
    "coords": { "lat": 36.4558, "lng": 127.1121 }
  },
  {
    "id": "magoksa_temple",
    "name": "마곡사",
    "city": "공주",
    "category": "outdoor",
    "tags": ["사찰", "자연", "힐링", "산책", "유네스코"],
    "weather_weights": { "sunny": 1.0, "cloudy": 0.9, "rainy": 0.5, "fine_dust_limit": "good" },
    "temp_range": { "min": -5, "max": 33 },
    "golden_hour_bonus": false,
    "copy": "비 오는 날 안개 낀 사찰 풍경도 특별합니다.",
    "coords": { "lat": 36.5325, "lng": 126.9099 }
  },
  {
    "id": "daecheon_beach",
    "name": "대천해수욕장",
    "city": "보령",
    "category": "outdoor",
    "tags": ["해변", "여름", "물놀이", "머드축제"],
    "weather_weights": { "sunny": 1.0, "cloudy": 0.6, "rainy": 0.1, "fine_dust_limit": "moderate" },
    "temp_range": { "min": 20, "max": 38 },
    "golden_hour_bonus": true,
    "copy": "파란 하늘과 서해 바다가 만나는 최고의 여름 스팟.",
    "coords": { "lat": 36.3253, "lng": 126.5486 }
  },
  {
    "id": "haemi_castle",
    "name": "해미읍성",
    "city": "서산",
    "category": "outdoor",
    "tags": ["역사", "성곽", "걷기", "사진맛집"],
    "weather_weights": { "sunny": 1.0, "cloudy": 0.8, "rainy": 0.2, "fine_dust_limit": "moderate" },
    "temp_range": { "min": 5, "max": 33 },
    "golden_hour_bonus": true,
    "copy": "조선시대 원형 그대로 보존된 읍성, 사진 맛집.",
    "coords": { "lat": 36.7086, "lng": 126.5508 }
  },
  {
    "id": "seosan_birdland",
    "name": "서산 버드랜드",
    "city": "서산",
    "category": "outdoor",
    "tags": ["조류", "자연", "가족", "생태"],
    "weather_weights": { "sunny": 1.0, "cloudy": 0.7, "rainy": 0.1, "fine_dust_limit": "good" },
    "temp_range": { "min": 5, "max": 30 },
    "golden_hour_bonus": false,
    "copy": "철새 군무를 볼 수 있는 가을·겨울 최고의 장소.",
    "coords": { "lat": 36.7972, "lng": 126.4853 }
  },
  {
    "id": "busosusan_fortress",
    "name": "부소산성 & 낙화암",
    "city": "부여",
    "category": "outdoor",
    "tags": ["역사", "산책", "강변", "사진맛집", "백제"],
    "weather_weights": { "sunny": 1.0, "cloudy": 0.8, "rainy": 0.2, "fine_dust_limit": "moderate" },
    "temp_range": { "min": 5, "max": 33 },
    "golden_hour_bonus": true,
    "copy": "백마강을 내려다보는 낙화암, 맑은 날이 최고.",
    "coords": { "lat": 36.2872, "lng": 126.9100 }
  },
  {
    "id": "gungnamji_pond",
    "name": "궁남지",
    "city": "부여",
    "category": "outdoor",
    "tags": ["연꽃", "사진맛집", "산책", "야경", "역사"],
    "weather_weights": { "sunny": 1.0, "cloudy": 0.7, "rainy": 0.3, "fine_dust_limit": "moderate" },
    "temp_range": { "min": 10, "max": 35 },
    "golden_hour_bonus": true,
    "copy": "여름 연꽃 시즌엔 한 폭의 그림이 됩니다.",
    "coords": { "lat": 36.2730, "lng": 126.9079 }
  },
  {
    "id": "anmyeondo_island",
    "name": "안면도 꽃지해수욕장",
    "city": "태안",
    "category": "outdoor",
    "tags": ["해변", "일몰", "사진맛집", "드라이브"],
    "weather_weights": { "sunny": 1.0, "cloudy": 0.6, "rainy": 0.1, "fine_dust_limit": "moderate" },
    "temp_range": { "min": 10, "max": 35 },
    "golden_hour_bonus": true,
    "copy": "한국 최고의 일몰 스팟. 해질녘 30분 전에 도착하세요.",
    "coords": { "lat": 36.4339, "lng": 126.3700 }
  },
  {
    "id": "waemoryang_sunrise",
    "name": "왜목마을 해돋이",
    "city": "당진",
    "category": "outdoor",
    "tags": ["일출", "사진맛집", "바다", "새벽"],
    "weather_weights": { "sunny": 1.0, "cloudy": 0.4, "rainy": 0.0, "fine_dust_limit": "good" },
    "temp_range": { "min": -10, "max": 35 },
    "golden_hour_bonus": true,
    "copy": "서해에서 일출을 볼 수 있는 유일한 장소.",
    "coords": { "lat": 36.9736, "lng": 126.6328 }
  }
]
